# 
# Header Description:
# 
# Version: v3.0.0.1 Platform: 9 Manufacturer: HUAWEI Model: BND-AL10
# 
# Raw,utcTimeMillis,TimeNanos,LeapSecond,TimeUncertaintyNanos,FullBiasNanos,BiasNanos,BiasUncertaintyNanos,DriftNanosPerSecond,DriftUncertaintyNanosPerSecond,HardwareClockDiscontinuityCount,Svid,TimeOffsetNanos,State,ReceivedSvTimeNanos,ReceivedSvTimeUncertaintyNanos,Cn0DbHz,PseudorangeRateMetersPerSecond,PseudorangeRateUncertaintyMetersPerSecond,AccumulatedDeltaRangeState,AccumulatedDeltaRangeMeters,AccumulatedDeltaRangeUncertaintyMeters,CarrierFrequencyHz,CarrierCycles,CarrierPhase,CarrierPhaseUncertainty,MultipathIndicator,SnrInDb,ConstellationType,AgcDb,BasebandCn0DbHz,FullInterSignalBiasNanos,FullInterSignalBiasUncertaintyNanos,SatelliteInterSignalBiasNanos,SatelliteInterSignalBiasUncertaintyNanos,CodeType,ChipsetElapsedRealtimeNanos
# 
# UncalAccel,utcTimeMillis,elapsedRealtimeNanos,UncalAccelXMps2,UncalAccelYMps2,UncalAccelZMps2,BiasXMps2,BiasYMps2,BiasZMps2
# 
# UncalGyro,utcTimeMillis,elapsedRealtimeNanos,UncalGyroXRadPerSec,UncalGyroYRadPerSec,UncalGyroZRadPerSec,DriftXRadPerSec,DriftYRadPerSec,DriftZRadPerSec
# 
# UncalMag,utcTimeMillis,elapsedRealtimeNanos,UncalMagXMicroT,UncalMagYMicroT,UncalMagZMicroT,BiasXMicroT,BiasYMicroT,BiasZMicroT
# 
# OrientationDeg,utcTimeMillis,elapsedRealtimeNanos,yawDeg,rollDeg,pitchDeg
# 
# Fix,Provider,LatitudeDegrees,LongitudeDegrees,AltitudeMeters,SpeedMps,AccuracyMeters,BearingDegrees,UnixTimeMillis,SpeedAccuracyMps,BearingAccuracyDegrees,elapsedRealtimeNanos
# 
# Nav,Svid,Type,Status,MessageId,Sub-messageId,Data(Bytes)
# 
# Status,UnixTimeMillis,SignalCount,SignalIndex,ConstellationType,Svid,CarrierFrequencyHz,Cn0DbHz,AzimuthDegrees,ElevationDegrees,UsedInFix,HasAlmanacData,HasEphemerisData,BasebandCn0DbHz
# 
OrientationDeg,1618417289805,2123951216519028,30,0,-5
OrientationDeg,1618417289819,2123951231536216,30,0,-5
OrientationDeg,1618417289835,2123951246520591,30,0,-5
OrientationDeg,1618417289850,2123951261537778,30,0,-5
OrientationDeg,1618417289865,2123951276523716,30,0,-5
OrientationDeg,1618417289879,2123951291539341,30,0,-5
OrientationDeg,1618417289894,2123951306525278,31,0,-5
OrientationDeg,1618417289910,2123951321511216,31,0,-5
OrientationDeg,1618417289924,2123951336526841,31,0,-5
OrientationDeg,1618417289940,2123951351512778,31,0,-5
OrientationDeg,1618417289955,2123951366529966,31,0,-5
OrientationDeg,1618417289970,2123951381514341,31,0,-5
OrientationDeg,1618417289984,2123951396531528,31,0,-5
OrientationDeg,1618417290000,2123951411517466,31,0,-5
OrientationDeg,1618417290015,2123951426533091,31,0,-5
OrientationDeg,1618417290030,2123951441519028,31,0,-5
OrientationDeg,1618417290044,2123951456536216,31,0,-5
OrientationDeg,1618417290060,2123951471520591,31,1,-5
OrientationDeg,1618417290074,2123951486537778,31,1,-5
Fix,GPS,17.5032416,78.3315583,566.056215,0.443697,193.101288,111.611603,1618417290000,0.0,0.0,2123951480768996
Raw,1618417290000,1302452508000000000,18,,-32705,-0.1989665250730468,333.564095198152,-1048.0898508669839,0.0,0,15,220.0,16399,318107929326854,10,30.0,113.87468125903979,0.1,0,0.0,0.0,1.57542003E9,,,,0,,1,,,,,,,,
Raw,1618417290000,1302452508000000000,18,,-32705,-0.1989665250730468,333.564095198152,-1048.0898508669839,0.0,0,23,220.0,3,8215328,25,19.0,-294.32704446371645,0.1,0,0.0,0.0,1.57542003E9,,,,0,,1,,,,,,,,
Raw,1618417290000,1302452508000000000,18,,-32705,-0.1989665250730468,333.564095198152,-1048.0898508669839,0.0,0,20,220.0,3,8271633,25,25.0,-141.9052539335098,0.1,0,0.0,0.0,1.57542003E9,,,,0,,1,,,,,,,,
Raw,1618417290000,1302452508000000000,18,,-32705,-0.1989665250730468,333.564095198152,-1048.0898508669839,0.0,0,18,220.0,3,8172011,25,27.0,-609.4722256064415,0.1,0,0.0,0.0,1.57542003E9,,,,0,,1,,,,,,,,
Raw,1618417290000,1302452508000000000,18,,-32705,-0.1989665250730468,333.564095198152,-1048.0898508669839,0.0,0,1,220.0,33,1422256,25,24.0,228.40785388004136,0.1,0,0.0,0.0,1.60256256E9,,,,0,,3,,,,,,,,
Raw,1618417290000,1302452508000000000,18,,-32705,-0.1989665250730468,333.564095198152,-1048.0898508669839,0.0,0,23,220.0,33,6992026,25,25.0,-0.0,0.1,0,0.0,0.0,1.60368755E9,,,,0,,3,,,,,,,,
Raw,1618417290000,1302452508000000000,18,,-32705,-0.1989665250730468,333.564095198152,-1048.0898508669839,0.0,0,24,220.0,33,3033884,25,27.0,-762.5435742530993,0.1,0,0.0,0.0,1.60312499E9,,,,0,,3,,,,,,,,
OrientationDeg,1618417290089,2123951501522153,31,1,-5
OrientationDeg,1618417290105,2123951516539341,31,1,-5
OrientationDeg,1618417290120,2123951531525278,31,1,-5
OrientationDeg,1618417290134,2123951546511216,31,0,-5
OrientationDeg,1618417290150,2123951561526841,31,0,-5
OrientationDeg,1618417290165,2123951576512778,31,0,-5
OrientationDeg,1618417290179,2123951591529966,31,0,-5
OrientationDeg,1618417290195,2123951606514341,31,0,-5
OrientationDeg,1618417290210,2123951621531528,31,0,-5
OrientationDeg,1618417290224,2123951636515903,31,1,-5
Status,1618417290000,28,0,1,15,1575420032,30.00,43.35,47.58,1,1,1,
Status,1618417290000,28,1,1,23,1575420032,19.00,312.89,46.66,1,1,1,
Status,1618417290000,28,2,1,20,1575420032,25.00,4.57,44.71,1,1,1,
Status,1618417290000,28,3,1,18,1575420032,27.00,355.63,45.04,1,1,1,
Status,1618417290000,28,4,3,1,1602562560,24.00,7.28,45.09,1,0,0,
Status,1618417290000,28,5,3,23,1603687552,25.00,332.79,0.06,0,0,1,
Status,1618417290000,28,6,3,24,1603124992,27.00,5.21,53.71,1,0,1,
Status,1618417290000,28,7,1,29,1575420032,0.00,172.78,67.40,0,1,1,
Status,1618417290000,28,8,1,24,1575420032,0.00,329.28,55.08,0,1,0,
Status,1618417290000,28,9,1,10,1575420032,0.00,276.10,29.53,0,1,1,
Status,1618417290000,28,10,1,13,1575420032,0.00,40.14,14.98,0,1,1,
Status,1618417290000,28,11,1,32,1575420032,0.00,209.98,14.90,0,1,1,
Status,1618417290000,28,12,1,25,1575420032,0.00,188.69,10.52,0,1,1,
Status,1618417290000,28,13,1,26,1575420032,0.00,274.26,6.66,0,1,1,
Status,1618417290000,28,14,3,2,1599750016,0.00,250.15,53.36,0,0,0,
Status,1618417290000,28,15,3,17,1604249984,0.00,334.03,8.76,0,1,1,
Status,1618417290000,28,16,3,3,1604812544,0.00,222.01,7.40,0,0,0,
Status,1618417290000,28,17,3,22,1600312448,0.00,138.76,5.39,0,0,1,
Status,1618417290000,28,18,5,1,1561097984,0.00,155.25,68.14,0,0,0,
Status,1618417290000,28,19,5,2,1561097984,0.00,134.38,63.72,0,0,0,
Status,1618417290000,28,20,5,3,1561097984,0.00,254.12,36.44,0,0,0,
Status,1618417290000,28,21,5,5,1561097984,0.00,242.77,53.10,0,0,0,
Status,1618417290000,28,22,5,6,1561097984,0.00,180.16,24.71,0,0,1,
Status,1618417290000,28,23,5,7,1561097984,0.00,206.54,40.47,0,0,1,
Status,1618417290000,28,24,5,8,1561097984,0.00,313.37,33.93,0,0,0,
Status,1618417290000,28,25,5,9,1561097984,0.00,112.73,63.81,0,0,1,
Status,1618417290000,28,26,3,8,1605374976,0.00,28.06,6.04,0,1,0,
Status,1618417290000,28,27,5,10,1561097984,0.00,161.27,7.43,0,1,1,
OrientationDeg,1618417290239,2123951651533091,31,1,-5
OrientationDeg,1618417290255,2123951666519028,31,1,-5
OrientationDeg,1618417290269,2123951681534653,31,1,-5
OrientationDeg,1618417290284,2123951696520591,30,1,-5
OrientationDeg,1618417290300,2123951711536216,30,1,-5
OrientationDeg,1618417290314,2123951726522153,30,1,-5
OrientationDeg,1618417290329,2123951741539341,30,1,-5
OrientationDeg,1618417290345,2123951756523716,30,1,-5
OrientationDeg,1618417290360,2123951771540903,30,0,-5
OrientationDeg,1618417290374,2123951786526841,30,0,-5
OrientationDeg,1618417290389,2123951801511216,30,0,-5
OrientationDeg,1618417290405,2123951816528403,30,1,-5
OrientationDeg,1618417290419,2123951831514341,30,1,-5
OrientationDeg,1618417290435,2123951846531528,30,1,-5
OrientationDeg,1618417290449,2123951861515903,30,1,-5
OrientationDeg,1618417290465,2123951876533091,30,1,-5
OrientationDeg,1618417290479,2123951891517466,30,1,-5
OrientationDeg,1618417290495,2123951906534653,29,1,-5
OrientationDeg,1618417290510,2123951921520591,29,1,-4
OrientationDeg,1618417290525,2123951936536216,29,1,-4
OrientationDeg,1618417290539,2123951951522153,29,1,-4
OrientationDeg,1618417290555,2123951966539341,29,1,-5
OrientationDeg,1618417290569,2123951981523716,29,1,-5
OrientationDeg,1618417290584,2123951996540903,29,1,-5
OrientationDeg,1618417290599,2123952011526841,29,1,-5
OrientationDeg,1618417290615,2123952026511216,29,1,-5
OrientationDeg,1618417290629,2123952041528403,29,0,-5
OrientationDeg,1618417290645,2123952056512778,29,0,-5
OrientationDeg,1618417290660,2123952071529966,30,0,-5
OrientationDeg,1618417290675,2123952086515903,30,1,-5
OrientationDeg,1618417290689,2123952101531528,30,0,-5
OrientationDeg,1618417290705,2123952116517466,30,0,-5
OrientationDeg,1618417290719,2123952131534653,30,0,-5
OrientationDeg,1618417290735,2123952146519028,30,0,-4
OrientationDeg,1618417290750,2123952161536216,30,0,-4
OrientationDeg,1618417290764,2123952176522153,30,0,-5
OrientationDeg,1618417290779,2123952191537778,30,0,-4
OrientationDeg,1618417290795,2123952206523716,30,0,-4
OrientationDeg,1618417290809,2123952221539341,30,0,-4
OrientationDeg,1618417290825,2123952236525278,31,0,-4
OrientationDeg,1618417290840,2123952251511216,31,0,-4
OrientationDeg,1618417290854,2123952266526841,31,0,-4
OrientationDeg,1618417290870,2123952281512778,31,0,-5
OrientationDeg,1618417290885,2123952296529966,32,0,-5
OrientationDeg,1618417290900,2123952311515903,32,0,-5
OrientationDeg,1618417290915,2123952326531528,32,0,-5
OrientationDeg,1618417290929,2123952341517466,32,0,-5
OrientationDeg,1618417290944,2123952356533091,32,0,-5
OrientationDeg,1618417290959,2123952371519028,33,0,-4
OrientationDeg,1618417290974,2123952386536216,33,0,-4
OrientationDeg,1618417290990,2123952401520591,33,0,-4
OrientationDeg,1618417291005,2123952416537778,34,0,-4
OrientationDeg,1618417291020,2123952431523716,34,1,-4
OrientationDeg,1618417291034,2123952446539341,34,1,-4
OrientationDeg,1618417291049,2123952461525278,34,1,-4
OrientationDeg,1618417291065,2123952476511216,35,1,-3
Fix,GPS,17.5032488,78.3315651,567.470510,0.430913,190.250961,98.937935,1618417291000,0.0,0.0,2123952484221600
Raw,1618417291000,1302452509000000000,18,,-33753,-0.5998655735165812,333.564095198152,-1048.043103973814,0.0,0,15,220.0,16399,318108929326473,25,27.0,113.93718830659054,0.1,0,0.0,0.0,1.57542003E9,,,,0,,1,,,,,,,,
Raw,1618417291000,1302452509000000000,18,,-33753,-0.5998655735165812,333.564095198152,-1048.043103973814,0.0,0,23,220.0,3,8216310,25,19.0,-294.07701627351344,0.1,0,0.0,0.0,1.57542003E9,,,,0,,1,,,,,,,,
Raw,1618417291000,1302452509000000000,18,,-33753,-0.5998655735165812,333.564095198152,-1048.043103973814,0.0,0,20,220.0,3,8272113,25,24.0,-142.06316647469066,0.1,0,0.0,0.0,1.57542003E9,,,,0,,1,,,,,,,,
Raw,1618417291000,1302452509000000000,18,,-33753,-0.5998655735165812,333.564095198152,-1048.043103973814,0.0,0,18,220.0,3,8174047,25,25.0,-609.5270563499071,0.1,0,0.0,0.0,1.57542003E9,,,,0,,1,,,,,,,,
Raw,1618417291000,1302452509000000000,18,,-33753,-0.5998655735165812,333.564095198152,-1048.043103973814,0.0,0,1,220.0,33,1421489,25,23.0,228.24399700921936,0.1,0,0.0,0.0,1.60256256E9,,,,0,,3,,,,,,,,
Raw,1618417291000,1302452509000000000,18,,-33753,-0.5998655735165812,333.564095198152,-1048.043103973814,0.0,0,23,220.0,33,6992026,25,27.0,-0.0,0.1,0,0.0,0.0,1.60368755E9,,,,0,,3,,,,,,,,
Raw,1618417291000,1302452509000000000,18,,-33753,-0.5998655735165812,333.564095198152,-1048.043103973814,0.0,0,24,220.0,33,3036423,25,24.0,-762.0722918345374,0.1,0,0.0,0.0,1.60312499E9,,,,0,,3,,,,,,,,
OrientationDeg,1618417291080,2123952491528403,35,1,-4
OrientationDeg,1618417291094,2123952506512778,35,2,-4
OrientationDeg,1618417291110,2123952521529966,35,2,-4
OrientationDeg,1618417291124,2123952536514341,36,2,-4
OrientationDeg,1618417291140,2123952551531528,36,2,-3
OrientationDeg,1618417291154,2123952566515903,36,2,-3
OrientationDeg,1618417291170,2123952581533091,36,2,-3
OrientationDeg,1618417291185,2123952596517466,36,2,-3
OrientationDeg,1618417291199,2123952611536216,36,2,-3
OrientationDeg,1618417291215,2123952626520591,36,2,-3
OrientationDeg,1618417291230,2123952641537778,36,2,-4
OrientationDeg,1618417291245,2123952656522153,36,2,-4
Status,1618417291000,28,0,1,15,1575420032,27.00,43.34,47.57,1,1,1,
Status,1618417291000,28,1,1,23,1575420032,19.00,312.90,46.66,1,1,1,
Status,1618417291000,28,2,1,20,1575420032,24.00,4.58,44.70,1,1,1,
Status,1618417291000,28,3,1,18,1575420032,25.00,355.63,45.04,1,1,1,
Status,1618417291000,28,4,3,1,1602562560,23.00,7.28,45.08,1,0,0,
Status,1618417291000,28,5,3,23,1603687552,27.00,332.79,0.06,0,0,1,
Status,1618417291000,28,6,3,24,1603124992,24.00,5.22,53.71,1,0,1,
Status,1618417291000,28,7,1,29,1575420032,0.00,172.78,67.39,0,1,1,
Status,1618417291000,28,8,1,24,1575420032,0.00,329.26,55.13,0,1,0,
Status,1618417291000,28,9,1,10,1575420032,0.00,276.11,29.53,0,1,1,
Status,1618417291000,28,10,1,13,1575420032,0.00,40.14,14.97,0,1,1,
Status,1618417291000,28,11,1,32,1575420032,0.00,209.98,14.91,0,1,1,
Status,1618417291000,28,12,1,25,1575420032,0.00,188.68,10.52,0,1,1,
Status,1618417291000,28,13,1,26,1575420032,0.00,274.25,6.66,0,1,1,
Status,1618417291000,28,14,3,2,1599750016,0.00,250.17,53.36,0,0,0,
Status,1618417291000,28,15,3,17,1604249984,0.00,334.03,8.77,0,1,1,
Status,1618417291000,28,16,3,3,1604812544,0.00,222.01,7.41,0,0,0,
Status,1618417291000,28,17,3,22,1600312448,0.00,138.77,5.38,0,0,1,
Status,1618417291000,28,18,5,1,1561097984,0.00,155.25,68.14,0,0,0,
Status,1618417291000,28,19,5,2,1561097984,0.00,134.38,63.72,0,0,0,
Status,1618417291000,28,20,5,3,1561097984,0.00,254.12,36.44,0,0,0,
Status,1618417291000,28,21,5,5,1561097984,0.00,242.77,53.10,0,0,0,
Status,1618417291000,28,22,5,6,1561097984,0.00,180.16,24.71,0,0,1,
Status,1618417291000,28,23,5,7,1561097984,0.00,206.54,40.47,0,0,1,
Status,1618417291000,28,24,5,8,1561097984,0.00,313.37,33.93,0,0,0,
Status,1618417291000,28,25,5,9,1561097984,0.00,112.73,63.81,0,0,1,
Status,1618417291000,28,26,3,8,1605374976,0.00,28.06,6.03,0,1,0,
Status,1618417291000,28,27,5,10,1561097984,0.00,161.27,7.43,0,1,1,
OrientationDeg,1618417291260,2123952671539341,36,2,-4
OrientationDeg,1618417291275,2123952686525278,36,2,-4
OrientationDeg,1618417291290,2123952701511216,36,3,-4
OrientationDeg,1618417291305,2123952716526841,36,3,-4
OrientationDeg,1618417291319,2123952731512778,36,3,-4
OrientationDeg,1618417291335,2123952746528403,36,2,-4
OrientationDeg,1618417291349,2123952761514341,36,2,-4
OrientationDeg,1618417291365,2123952776531528,36,2,-4
OrientationDeg,1618417291379,2123952791515903,36,2,-4
OrientationDeg,1618417291395,2123952806533091,35,2,-4
OrientationDeg,1618417291409,2123952821519028,35,2,-4
OrientationDeg,1618417291425,2123952836534653,35,2,-4
OrientationDeg,1618417291439,2123952851520591,35,2,-4
OrientationDeg,1618417291455,2123952866537778,35,2,-4
OrientationDeg,1618417291470,2123952881522153,35,2,-4
OrientationDeg,1618417291485,2123952896539341,34,2,-5
OrientationDeg,1618417291500,2123952911523716,34,2,-5
OrientationDeg,1618417291515,2123952926540903,34,2,-5
OrientationDeg,1618417291530,2123952941526841,34,2,-5
OrientationDeg,1618417291545,2123952956511216,34,2,-5
OrientationDeg,1618417291559,2123952971528403,33,2,-5
OrientationDeg,1618417291575,2123952986514341,33,2,-5
OrientationDeg,1618417291590,2123953001529966,33,2,-5
OrientationDeg,1618417291605,2123953016515903,33,2,-5
OrientationDeg,1618417291620,2123953031533091,33,2,-5
OrientationDeg,1618417291634,2123953046517466,33,2,-5
OrientationDeg,1618417291649,2123953061536216,33,2,-5
OrientationDeg,1618417291665,2123953076519028,32,2,-5
OrientationDeg,1618417291679,2123953091536216,32,2,-5
OrientationDeg,1618417291694,2123953106522153,32,2,-5
OrientationDeg,1618417291710,2123953121539341,32,2,-5
OrientationDeg,1618417291724,2123953136523716,32,2,-5
OrientationDeg,1618417291740,2123953151540903,32,2,-5
OrientationDeg,1618417291754,2123953166525278,32,2,-5
OrientationDeg,1618417291769,2123953181511216,32,2,-5
OrientationDeg,1618417291784,2123953196528403,32,2,-5
OrientationDeg,1618417291799,2123953211512778,32,2,-5
OrientationDeg,1618417291814,2123953226529966,32,2,-4
OrientationDeg,1618417291830,2123953241515903,32,2,-4
OrientationDeg,1618417291844,2123953256531528,32,2,-4
OrientationDeg,1618417291860,2123953271517466,32,2,-4
OrientationDeg,1618417291875,2123953286534653,32,2,-3
OrientationDeg,1618417291890,2123953301519028,31,2,-3
OrientationDeg,1618417291905,2123953316536216,31,2,-3
OrientationDeg,1618417291919,2123953331522153,31,2,-3
OrientationDeg,1618417291935,2123953346537778,31,2,-2
OrientationDeg,1618417291950,2123953361523716,31,2,-2
OrientationDeg,1618417291965,2123953376539341,31,2,-2
OrientationDeg,1618417291980,2123953391525278,31,2,-2
OrientationDeg,1618417291995,2123953406511216,31,2,-2
OrientationDeg,1618417292009,2123953421528403,31,2,-1
OrientationDeg,1618417292025,2123953436512778,31,2,-1
OrientationDeg,1618417292039,2123953451529966,32,2,-1
OrientationDeg,1618417292054,2123953466514341,32,2,-1
OrientationDeg,1618417292070,2123953481531528,32,2,0
Fix,GPS,17.5032473,78.3315540,568.277710,0.274380,183.299133,90.526993,1618417292000,0.0,0.0,2123953479454934
Raw,1618417292000,1302452510000000000,18,,-34806,-0.020658408058807254,333.564095198152,-1047.5918387473296,0.0,0,15,220.0,3,9326076,25,26.0,114.23546755104326,0.1,0,0.0,0.0,1.57542003E9,,,,0,,1,,,,,,,,
Raw,1618417292000,1302452510000000000,18,,-34806,-0.020658408058807254,333.564095198152,-1047.5918387473296,0.0,0,23,220.0,3,8217311,25,20.0,-294.5628166606184,0.1,0,0.0,0.0,1.57542003E9,,,,0,,1,,,,,,,,
Raw,1618417292000,1302452510000000000,18,,-34806,-0.020658408058807254,333.564095198152,-1047.5918387473296,0.0,0,20,220.0,3,8272585,25,24.0,-141.85480964952148,0.1,0,0.0,0.0,1.57542003E9,,,,0,,1,,,,,,,,
Raw,1618417292000,1302452510000000000,18,,-34806,-0.020658408058807254,333.564095198152,-1047.5918387473296,0.0,0,18,220.0,3,8176088,25,27.0,-609.4327474711463,0.1,0,0.0,0.0,1.57542003E9,,,,0,,1,,,,,,,,
Raw,1618417292000,1302452510000000000,18,,-34806,-0.020658408058807254,333.564095198152,-1047.5918387473296,0.0,0,1,220.0,33,1420723,25,21.0,228.71544484807563,0.1,0,0.0,0.0,1.60256256E9,,,,0,,3,,,,,,,,
Raw,1618417292000,1302452510000000000,18,,-34806,-0.020658408058807254,333.564095198152,-1047.5918387473296,0.0,0,23,220.0,33,6992026,10,29.0,-0.0,0.1,0,0.0,0.0,1.60368755E9,,,,0,,3,,,,,,,,
Raw,1618417292000,1302452510000000000,18,,-34806,-0.020658408058807254,333.564095198152,-1047.5918387473296,0.0,0,24,220.0,33,3038972,25,27.0,-761.8941240909346,0.1,0,0.0,0.0,1.60312499E9,,,,0,,3,,,,,,,,
OrientationDeg,1618417292085,2123953496515903,32,2,0
OrientationDeg,1618417292099,2123953511533091,32,2,0
OrientationDeg,1618417292115,2123953526519028,32,2,0
OrientationDeg,1618417292129,2123953541536216,31,2,0
OrientationDeg,1618417292145,2123953556520591,31,2,0
OrientationDeg,1618417292159,2123953571537778,31,2,0
OrientationDeg,1618417292175,2123953586523716,31,2,0
OrientationDeg,1618417292190,2123953601539341,31,2,0
Status,1618417292000,28,0,1,15,1575420032,26.00,43.34,47.56,1,1,1,
Status,1618417292000,28,1,1,23,1575420032,20.00,312.91,46.65,1,1,1,
Status,1618417292000,28,2,1,20,1575420032,24.00,4.59,44.70,1,1,1,
Status,1618417292000,28,3,1,18,1575420032,27.00,355.64,45.05,1,1,1,
Status,1618417292000,28,4,3,1,1602562560,21.00,7.29,45.07,1,0,0,
Status,1618417292000,28,5,3,23,1603687552,29.00,332.75,0.11,0,0,1,
Status,1618417292000,28,6,3,24,1603124992,27.00,5.23,53.72,1,0,1,
Status,1618417292000,28,7,1,29,1575420032,0.00,172.78,67.38,0,1,1,
Status,1618417292000,28,8,1,24,1575420032,0.00,329.26,55.13,0,1,0,
Status,1618417292000,28,9,1,10,1575420032,0.00,276.12,29.53,0,1,1,
Status,1618417292000,28,10,1,13,1575420032,0.00,40.13,14.96,0,1,1,
Status,1618417292000,28,11,1,32,1575420032,0.00,209.98,14.92,0,1,1,
Status,1618417292000,28,12,1,25,1575420032,0.00,188.68,10.51,0,1,1,
Status,1618417292000,28,13,1,26,1575420032,0.00,274.24,6.65,0,1,1,
Status,1618417292000,28,14,3,2,1599750016,0.00,250.18,53.37,0,0,0,
Status,1618417292000,28,15,3,17,1604249984,0.00,334.03,8.77,0,1,1,
Status,1618417292000,28,16,3,3,1604812544,0.00,222.02,7.41,0,0,0,
Status,1618417292000,28,17,3,22,1600312448,0.00,138.77,5.38,0,0,1,
Status,1618417292000,28,18,5,1,1561097984,0.00,155.25,68.14,0,0,0,
Status,1618417292000,28,19,5,2,1561097984,0.00,134.39,63.72,0,0,0,
Status,1618417292000,28,20,5,3,1561097984,0.00,254.12,36.44,0,0,0,
Status,1618417292000,28,21,5,5,1561097984,0.00,242.77,53.10,0,0,0,
Status,1618417292000,28,22,5,6,1561097984,0.00,180.16,24.71,0,0,1,
Status,1618417292000,28,23,5,7,1561097984,0.00,206.54,40.47,0,0,1,
Status,1618417292000,28,24,5,8,1561097984,0.00,313.37,33.93,0,0,0,
Status,1618417292000,28,25,5,9,1561097984,0.00,112.73,63.81,0,0,1,
Status,1618417292000,28,26,3,8,1605374976,0.00,28.06,6.02,0,1,0,
Status,1618417292000,28,27,5,10,1561097984,0.00,161.27,7.43,0,1,1,
OrientationDeg,1618417292204,2123953616525278,31,2,0
OrientationDeg,1618417292220,2123953631511216,31,2,0
OrientationDeg,1618417292235,2123953646528403,31,2,0
OrientationDeg,1618417292250,2123953661512778,31,2,0
OrientationDeg,1618417292264,2123953676529966,31,2,0
OrientationDeg,1618417292280,2123953691514341,31,2,0
OrientationDeg,1618417292295,2123953706531528,31,2,0
OrientationDeg,1618417292309,2123953721517466,31,2,0
OrientationDeg,1618417292325,2123953736533091,31,2,0
OrientationDeg,1618417292339,2123953751519028,31,2,0
OrientationDeg,1618417292355,2123953766536216,31,2,0
OrientationDeg,1618417292370,2123953781522153,31,2,0
OrientationDeg,1618417292385,2123953796537778,31,2,0
OrientationDeg,1618417292399,2123953811522153,31,2,0
OrientationDeg,1618417292415,2123953826539341,31,2,0
OrientationDeg,1618417292429,2123953841525278,31,2,0
OrientationDeg,1618417292445,2123953856509653,31,2,0
OrientationDeg,1618417292460,2123953871526841,31,2,0
OrientationDeg,1618417292475,2123953886512778,31,2,0
OrientationDeg,1618417292489,2123953901528403,31,2,0
OrientationDeg,1618417292505,2123953916514341,31,2,0
OrientationDeg,1618417292519,2123953931531528,31,2,0
OrientationDeg,1618417292534,2123953946515903,31,2,0
OrientationDeg,1618417292549,2123953961533091,30,2,0
OrientationDeg,1618417292564,2123953976517466,30,1,0
OrientationDeg,1618417292579,2123953991534653,30,1,0
OrientationDeg,1618417292595,2123954006520591,30,1,0
OrientationDeg,1618417292609,2123954021537778,30,1,0
OrientationDeg,1618417292624,2123954036522153,30,1,0
OrientationDeg,1618417292640,2123954051539341,30,1,0
OrientationDeg,1618417292655,2123954066525278,30,1,0
OrientationDeg,1618417292670,2123954081540903,30,1,0
OrientationDeg,1618417292685,2123954096525278,30,1,0
OrientationDeg,1618417292700,2123954111511216,30,1,0
OrientationDeg,1618417292715,2123954126528403,30,1,0
OrientationDeg,1618417292730,2123954141514341,30,2,0
OrientationDeg,1618417292745,2123954156529966,30,2,0
OrientationDeg,1618417292760,2123954171515903,29,2,0
OrientationDeg,1618417292775,2123954186533091,29,1,0
OrientationDeg,1618417292790,2123954201517466,29,1,0
OrientationDeg,1618417292805,2123954216534653,29,1,0
OrientationDeg,1618417292820,2123954231519028,29,1,0
OrientationDeg,1618417292835,2123954246536216,29,1,0
OrientationDeg,1618417292849,2123954261520591,29,1,0
OrientationDeg,1618417292865,2123954276537778,29,1,0
OrientationDeg,1618417292880,2123954291523716,29,1,0
OrientationDeg,1618417292895,2123954306540903,29,1,0
OrientationDeg,1618417292909,2123954321525278,29,2,0
OrientationDeg,1618417292925,2123954336511216,29,2,0
OrientationDeg,1618417292940,2123954351528403,29,2,0
OrientationDeg,1618417292954,2123954366512778,29,2,0
OrientationDeg,1618417292970,2123954381529966,29,2,0
OrientationDeg,1618417292985,2123954396515903,29,2,0
OrientationDeg,1618417292999,2123954411531528,29,2,0
OrientationDeg,1618417293015,2123954426517466,29,2,0
OrientationDeg,1618417293030,2123954441534653,29,2,0
OrientationDeg,1618417293045,2123954456520591,29,2,0
OrientationDeg,1618417293059,2123954471536216,29,2,0
OrientationDeg,1618417293075,2123954486520591,29,3,0
Raw,1618417293000,1302452511000000000,18,,-35844,-0.01763979714451125,333.564095198152,-1046.8108907686772,0.0,0,15,220.0,3,9325688,25,24.0,114.64998797164299,0.1,0,0.0,0.0,1.57542003E9,,,,0,,1,,,,,,,,
Raw,1618417293000,1302452511000000000,18,,-35844,-0.01763979714451125,333.564095198152,-1046.8108907686772,0.0,0,23,220.0,3,8218284,25,20.0,-294.31827154476196,0.1,0,0.0,0.0,1.57542003E9,,,,0,,1,,,,,,,,
Raw,1618417293000,1302452511000000000,18,,-35844,-0.01763979714451125,333.564095198152,-1046.8108907686772,0.0,0,20,220.0,3,8273065,10,28.0,-141.76817707484588,0.1,0,0.0,0.0,1.57542003E9,,,,0,,1,,,,,,,,
Raw,1618417293000,1302452511000000000,18,,-35844,-0.01763979714451125,333.564095198152,-1046.8108907686772,0.0,0,18,220.0,3,8178125,10,29.0,-609.1827192809433,0.1,0,0.0,0.0,1.57542003E9,,,,0,,1,,,,,,,,
Raw,1618417293000,1302452511000000000,18,,-35844,-0.01763979714451125,333.564095198152,-1046.8108907686772,0.0,0,1,220.0,33,1419944,25,23.0,229.95443276604553,0.1,0,0.0,0.0,1.60256256E9,,,,0,,3,,,,,,,,
Raw,1618417293000,1302452511000000000,18,,-35844,-0.01763979714451125,333.564095198152,-1046.8108907686772,0.0,0,23,220.0,33,6992026,25,27.0,-0.0,0.1,0,0.0,0.0,1.60368755E9,,,,0,,3,,,,,,,,
Raw,1618417293000,1302452511000000000,18,,-35844,-0.01763979714451125,333.564095198152,-1046.8108907686772,0.0,0,24,220.0,33,3041520,25,27.0,-761.8251559321208,0.1,0,0.0,0.0,1.60312499E9,,,,0,,3,,,,,,,,
OrientationDeg,1618417293090,2123954501537778,29,3,0
OrientationDeg,1618417293105,2123954516523716,29,3,0
OrientationDeg,1618417293119,2123954531540903,29,3,0
OrientationDeg,1618417293134,2123954546525278,29,3,0
OrientationDeg,1618417293149,2123954561511216,29,3,0
OrientationDeg,1618417293165,2123954576526841,29,3,1
Fix,GPS,17.5032549,78.3315424,573.951189,0.149084,179.657562,62.077766,1618417293000,0.0,0.0,2123954486131496
OrientationDeg,1618417293180,2123954591512778,29,3,1
OrientationDeg,1618417293195,2123954606529966,29,3,1
OrientationDeg,1618417293209,2123954621514341,29,3,1
OrientationDeg,1618417293225,2123954636531528,29,3,1
Status,1618417293000,28,0,1,15,1575420032,24.00,43.33,47.56,1,1,1,
Status,1618417293000,28,1,1,23,1575420032,20.00,312.92,46.65,1,1,1,
Status,1618417293000,28,2,1,20,1575420032,28.00,4.60,44.70,1,1,1,
Status,1618417293000,28,3,1,18,1575420032,29.00,355.65,45.05,1,1,1,
Status,1618417293000,28,4,3,1,1602562560,23.00,7.29,45.07,1,0,0,
Status,1618417293000,28,5,3,23,1603687552,27.00,332.75,0.11,0,0,1,
Status,1618417293000,28,6,3,24,1603124992,27.00,5.23,53.73,1,0,1,
Status,1618417293000,28,7,1,29,1575420032,0.00,172.79,67.37,0,1,1,
Status,1618417293000,28,8,1,24,1575420032,0.00,329.26,55.13,0,1,0,
Status,1618417293000,28,9,1,10,1575420032,0.00,276.13,29.53,0,1,1,
Status,1618417293000,28,10,1,13,1575420032,0.00,40.13,14.96,0,1,1,
Status,1618417293000,28,11,1,32,1575420032,0.00,209.99,14.92,0,1,1,
Status,1618417293000,28,12,1,25,1575420032,0.00,188.67,10.51,0,1,1,
Status,1618417293000,28,13,1,26,1575420032,0.00,274.24,6.65,0,1,1,
Status,1618417293000,28,14,3,2,1599750016,0.00,250.20,53.37,0,0,0,
Status,1618417293000,28,15,3,17,1604249984,0.00,334.04,8.78,0,1,1,
Status,1618417293000,28,16,3,3,1604812544,0.00,222.02,7.42,0,0,0,
Status,1618417293000,28,17,3,22,1600312448,0.00,138.78,5.37,0,0,1,
Status,1618417293000,28,18,5,1,1561097984,0.00,155.25,68.14,0,0,0,
Status,1618417293000,28,19,5,2,1561097984,0.00,134.39,63.72,0,0,0,
Status,1618417293000,28,20,5,3,1561097984,0.00,254.12,36.44,0,0,0,
Status,1618417293000,28,21,5,5,1561097984,0.00,242.77,53.10,0,0,0,
Status,1618417293000,28,22,5,6,1561097984,0.00,180.16,24.71,0,0,1,
Status,1618417293000,28,23,5,7,1561097984,0.00,206.54,40.47,0,0,1,
Status,1618417293000,28,24,5,8,1561097984,0.00,313.37,33.93,0,0,0,
Status,1618417293000,28,25,5,9,1561097984,0.00,112.73,63.81,0,0,1,
Status,1618417293000,28,26,3,8,1605374976,0.00,28.07,6.02,0,1,0,
Status,1618417293000,28,27,5,10,1561097984,0.00,161.27,7.43,0,1,1,
OrientationDeg,1618417293240,2123954651517466,29,3,1
OrientationDeg,1618417293254,2123954666533091,29,3,1
OrientationDeg,1618417293270,2123954681519028,29,3,1
OrientationDeg,1618417293284,2123954696536216,29,3,1
OrientationDeg,1618417293299,2123954711520591,29,3,1
OrientationDeg,1618417293314,2123954726537778,29,3,1
OrientationDeg,1618417293329,2123954741522153,29,3,1
OrientationDeg,1618417293344,2123954756539341,29,3,1
OrientationDeg,1618417293360,2123954771525278,29,3,1
OrientationDeg,1618417293375,2123954786509653,29,3,1
OrientationDeg,1618417293389,2123954801526841,29,3,1
OrientationDeg,1618417293405,2123954816512778,29,3,1
OrientationDeg,1618417293419,2123954831529966,29,3,1
OrientationDeg,1618417293435,2123954846514341,29,3,1
OrientationDeg,1618417293450,2123954861531528,29,3,1
OrientationDeg,1618417293465,2123954876515903,29,3,2
OrientationDeg,1618417293480,2123954891533091,29,3,2
OrientationDeg,1618417293495,2123954906519028,28,3,2
OrientationDeg,1618417293510,2123954921534653,28,3,2
OrientationDeg,1618417293525,2123954936520591,28,3,2
OrientationDeg,1618417293540,2123954951537778,28,3,2
OrientationDeg,1618417293555,2123954966522153,28,3,1
OrientationDeg,1618417293570,2123954981539341,28,3,1
OrientationDeg,1618417293585,2123954996523716,28,3,1
OrientationDeg,1618417293600,2123955011540903,28,3,1
OrientationDeg,1618417293614,2123955026526841,28,3,1
OrientationDeg,1618417293630,2123955041511216,28,3,1
OrientationDeg,1618417293645,2123955056528403,28,3,1
OrientationDeg,1618417293660,2123955071514341,27,3,1
OrientationDeg,1618417293674,2123955086531528,27,3,1
OrientationDeg,1618417293690,2123955101515903,27,3,1
OrientationDeg,1618417293704,2123955116533091,27,3,1
OrientationDeg,1618417293719,2123955131517466,27,3,1
OrientationDeg,1618417293735,2123955146534653,27,3,1
OrientationDeg,1618417293749,2123955161520591,27,3,1
OrientationDeg,1618417293764,2123955176537778,27,3,1
OrientationDeg,1618417293779,2123955191522153,27,3,1
OrientationDeg,1618417293795,2123955206539341,27,3,1
OrientationDeg,1618417293810,2123955221523716,27,3,1
OrientationDeg,1618417293824,2123955236540903,27,3,1
OrientationDeg,1618417293839,2123955251526841,27,3,1
OrientationDeg,1618417293854,2123955266511216,27,3,1
OrientationDeg,1618417293869,2123955281528403,27,3,1
OrientationDeg,1618417293885,2123955296514341,26,3,1
OrientationDeg,1618417293900,2123955311529966,26,3,1
OrientationDeg,1618417293914,2123955326515903,26,3,1
OrientationDeg,1618417293929,2123955341531528,26,3,1
OrientationDeg,1618417293945,2123955356517466,26,4,1
OrientationDeg,1618417293959,2123955371534653,26,4,1
OrientationDeg,1618417293975,2123955386520591,26,4,1
OrientationDeg,1618417293989,2123955401536216,26,4,1
OrientationDeg,1618417294005,2123955416522153,26,3,1
OrientationDeg,1618417294020,2123955431539341,27,4,1
OrientationDeg,1618417294034,2123955446523716,27,4,0
OrientationDeg,1618417294049,2123955461540903,27,4,0
OrientationDeg,1618417294064,2123955476525278,27,4,0
OrientationDeg,1618417294079,2123955491511216,27,4,0
Fix,GPS,17.5032495,78.3315106,580.155479,0.378879,172.261566,3.065931,1618417294000,0.0,0.0,2123955488554933
Raw,1618417294000,1302452512000000000,18,,-36884,-0.6137287665042095,333.564095198152,-1046.33005944509,0.0,0,15,220.0,3,9325301,25,26.0,114.84737864811905,0.1,0,0.0,0.0,1.57542003E9,,,,0,,1,,,,,,,,
Raw,1618417294000,1302452512000000000,18,,-36884,-0.6137287665042095,333.564095198152,-1046.33005944509,0.0,0,23,220.0,3,8219297,25,19.0,-294.38626166665927,0.1,0,0.0,0.0,1.57542003E9,,,,0,,1,,,,,,,,
Raw,1618417294000,1302452512000000000,18,,-36884,-0.6137287665042095,333.564095198152,-1046.33005944509,0.0,0,20,220.0,3,8273540,10,28.0,-141.6738681960851,0.1,0,0.0,0.0,1.57542003E9,,,,0,,1,,,,,,,,
Raw,1618417294000,1302452512000000000,18,,-36884,-0.6137287665042095,333.564095198152,-1046.33005944509,0.0,0,18,220.0,3,8180159,10,29.0,-609.3340521329083,0.1,0,0.0,0.0,1.57542003E9,,,,0,,1,,,,,,,,
Raw,1618417294000,1302452512000000000,18,,-36884,-0.6137287665042095,333.564095198152,-1046.33005944509,0.0,0,1,220.0,33,1419175,25,23.0,229.55485197579537,0.1,0,0.0,0.0,1.60256256E9,,,,0,,3,,,,,,,,
Raw,1618417294000,1302452512000000000,18,,-36884,-0.6137287665042095,333.564095198152,-1046.33005944509,0.0,0,23,220.0,33,6992026,10,28.0,-0.0,0.1,0,0.0,0.0,1.60368755E9,,,,0,,3,,,,,,,,
Raw,1618417294000,1302452512000000000,18,,-36884,-0.6137287665042095,333.564095198152,-1046.33005944509,0.0,0,24,220.0,33,3044066,10,29.0,-761.6929669610606,0.1,0,0.0,0.0,1.60312499E9,,,,0,,3,,,,,,,,
OrientationDeg,1618417294095,2123955506528403,27,3,0
OrientationDeg,1618417294110,2123955521512778,27,3,0
OrientationDeg,1618417294125,2123955536529966,27,3,0
OrientationDeg,1618417294139,2123955551515903,27,4,0
OrientationDeg,1618417294155,2123955566531528,27,4,0
OrientationDeg,1618417294169,2123955581517466,27,4,0
OrientationDeg,1618417294185,2123955596533091,27,4,0
OrientationDeg,1618417294200,2123955611519028,27,3,0
OrientationDeg,1618417294215,2123955626536216,28,3,0
OrientationDeg,1618417294229,2123955641520591,28,3,0
OrientationDeg,1618417294245,2123955656537778,28,3,0
Status,1618417294000,28,0,1,15,1575420032,26.00,43.33,47.55,1,1,1,
Status,1618417294000,28,1,1,23,1575420032,19.00,312.93,46.65,1,1,1,
Status,1618417294000,28,2,1,20,1575420032,28.00,4.61,44.69,1,1,1,
Status,1618417294000,28,3,1,18,1575420032,29.00,355.66,45.06,1,1,1,
Status,1618417294000,28,4,3,1,1602562560,23.00,7.30,45.06,1,0,0,
Status,1618417294000,28,5,3,23,1603687552,28.00,332.75,0.11,0,0,1,
Status,1618417294000,28,6,3,24,1603124992,29.00,5.24,53.74,1,0,1,
Status,1618417294000,28,7,1,29,1575420032,0.00,172.79,67.36,0,1,1,
Status,1618417294000,28,8,1,24,1575420032,0.00,329.26,55.13,0,1,0,
Status,1618417294000,28,9,1,10,1575420032,0.00,276.14,29.54,0,1,1,
Status,1618417294000,28,10,1,13,1575420032,0.00,40.13,14.95,0,1,1,
Status,1618417294000,28,11,1,32,1575420032,0.00,209.99,14.93,0,1,1,
Status,1618417294000,28,12,1,25,1575420032,0.00,188.67,10.51,0,1,1,
Status,1618417294000,28,13,1,26,1575420032,0.00,274.23,6.65,0,1,1,
Status,1618417294000,28,14,3,2,1599750016,0.00,250.21,53.37,0,0,0,
Status,1618417294000,28,15,3,17,1604249984,0.00,334.04,8.79,0,1,1,
Status,1618417294000,28,16,3,3,1604812544,0.00,222.03,7.42,0,0,0,
Status,1618417294000,28,17,3,22,1600312448,0.00,138.79,5.36,0,0,1,
Status,1618417294000,28,18,5,1,1561097984,0.00,155.25,68.14,0,0,0,
Status,1618417294000,28,19,5,2,1561097984,0.00,134.39,63.72,0,0,0,
Status,1618417294000,28,20,5,3,1561097984,0.00,254.12,36.44,0,0,0,
Status,1618417294000,28,21,5,5,1561097984,0.00,242.77,53.10,0,0,0,
Status,1618417294000,28,22,5,6,1561097984,0.00,180.16,24.71,0,0,1,
Status,1618417294000,28,23,5,7,1561097984,0.00,206.54,40.47,0,0,1,
Status,1618417294000,28,24,5,8,1561097984,0.00,313.37,33.93,0,0,0,
Status,1618417294000,28,25,5,9,1561097984,0.00,112.73,63.81,0,0,1,
Status,1618417294000,28,26,3,8,1605374976,0.00,28.07,6.01,0,1,0,
Status,1618417294000,28,27,5,10,1561097984,0.00,161.27,7.43,0,1,1,
OrientationDeg,1618417294259,2123955671523716,28,3,0
OrientationDeg,1618417294275,2123955686540903,28,4,-1
OrientationDeg,1618417294290,2123955701525278,29,4,-1
OrientationDeg,1618417294305,2123955716511216,29,3,-1
OrientationDeg,1618417294320,2123955731528403,29,3,-1
OrientationDeg,1618417294335,2123955746512778,29,3,-1
OrientationDeg,1618417294349,2123955761529966,29,3,-1
OrientationDeg,1618417294365,2123955776514341,29,3,-1
OrientationDeg,1618417294380,2123955791531528,29,3,-1
OrientationDeg,1618417294395,2123955806517466,30,3,-1
OrientationDeg,1618417294410,2123955821533091,30,3,-1
OrientationDeg,1618417294425,2123955836519028,30,3,-1
OrientationDeg,1618417294439,2123955851536216,30,3,-1
OrientationDeg,1618417294455,2123955866520591,31,3,-1
OrientationDeg,1618417294470,2123955881537778,31,4,0
OrientationDeg,1618417294485,2123955896522153,31,4,0
OrientationDeg,1618417294499,2123955911539341,31,3,0
OrientationDeg,1618417294514,2123955926523716,32,3,0
OrientationDeg,1618417294529,2123955941511216,32,3,0
OrientationDeg,1618417294545,2123955956526841,32,3,0
OrientationDeg,1618417294559,2123955971512778,32,3,0
OrientationDeg,1618417294575,2123955986529966,33,3,0
OrientationDeg,1618417294589,2123956001514341,33,4,0
OrientationDeg,1618417294605,2123956016531528,33,3,0
OrientationDeg,1618417294619,2123956031515903,33,3,0
OrientationDeg,1618417294634,2123956046533091,34,3,0
OrientationDeg,1618417294650,2123956061519028,34,3,0
OrientationDeg,1618417294665,2123956076534653,34,3,0
OrientationDeg,1618417294680,2123956091520591,35,3,0
OrientationDeg,1618417294695,2123956106537778,35,3,0
OrientationDeg,1618417294709,2123956121522153,35,3,0
OrientationDeg,1618417294725,2123956136539341,36,4,0
OrientationDeg,1618417294740,2123956151525278,36,4,0
OrientationDeg,1618417294754,2123956166540903,36,4,0
OrientationDeg,1618417294770,2123956181526841,37,4,0
OrientationDeg,1618417294784,2123956196511216,37,4,0
OrientationDeg,1618417294800,2123956211528403,37,4,0
OrientationDeg,1618417294815,2123956226514341,37,4,0
OrientationDeg,1618417294830,2123956241529966,37,4,0
OrientationDeg,1618417294844,2123956256515903,37,3,0
OrientationDeg,1618417294860,2123956271533091,37,3,0
OrientationDeg,1618417294874,2123956286517466,37,3,-1
OrientationDeg,1618417294890,2123956301534653,37,3,-1
OrientationDeg,1618417294904,2123956316520591,37,3,-1
OrientationDeg,1618417294919,2123956331536216,37,3,-1
OrientationDeg,1618417294935,2123956346522153,37,3,-1
OrientationDeg,1618417294949,2123956361539341,37,2,-1
OrientationDeg,1618417294965,2123956376523716,37,2,-1
OrientationDeg,1618417294979,2123956391540903,37,2,-1
OrientationDeg,1618417294994,2123956406525278,37,2,-1
OrientationDeg,1618417295009,2123956421512778,37,2,-1
OrientationDeg,1618417295024,2123956436528403,37,2,-1
OrientationDeg,1618417295039,2123956451512778,37,2,-1
OrientationDeg,1618417295055,2123956466529966,37,2,-1
OrientationDeg,1618417295069,2123956481514341,37,2,-1
Fix,GPS,17.5032306,78.3314870,583.960702,0.583175,170.414703,323.826019,1618417295000,0.0,0.0,2123956483201808
Raw,1618417295000,1302452513000000000,18,,-37933,-0.7500638145429548,333.564095198152,-1047.1048941583947,0.0,0,15,220.0,3,9324917,25,21.0,114.6127030660864,0.1,0,0.0,0.0,1.57542003E9,,,,0,,1,,,,,,,,
Raw,1618417295000,1302452513000000000,18,,-37933,-0.7500638145429548,333.564095198152,-1047.1048941583947,0.0,0,23,220.0,3,8220278,25,18.0,-294.3884548963979,0.1,0,0.0,0.0,1.57542003E9,,,,0,,1,,,,,,,,
Raw,1618417295000,1302452513000000000,18,,-37933,-0.7500638145429548,333.564095198152,-1047.1048941583947,0.0,0,20,220.0,3,8274014,10,29.0,-141.7133463313803,0.1,0,0.0,0.0,1.57542003E9,,,,0,,1,,,,,,,,
Raw,1618417295000,1302452513000000000,18,,-37933,-0.7500638145429548,333.564095198152,-1047.1048941583947,0.0,0,18,220.0,3,8182189,10,29.0,-609.4875782146119,0.1,0,0.0,0.0,1.57542003E9,,,,0,,1,,,,,,,,
Raw,1618417295000,1302452513000000000,18,,-37933,-0.7500638145429548,333.564095198152,-1047.1048941583947,0.0,0,1,220.0,33,1418418,25,23.0,229.86244294382968,0.1,0,0.0,0.0,1.60256256E9,,,,0,,3,,,,,,,,
Raw,1618417295000,1302452513000000000,18,,-37933,-0.7500638145429548,333.564095198152,-1047.1048941583947,0.0,0,23,220.0,33,6992026,25,25.0,-0.0,0.1,0,0.0,0.0,1.60368755E9,,,,0,,3,,,,,,,,
Raw,1618417295000,1302452513000000000,18,,-37933,-0.7500638145429548,333.564095198152,-1047.1048941583947,0.0,0,24,220.0,99,933046606,25,26.0,-762.2245965185848,0.1,0,0.0,0.0,1.60312499E9,,,,0,,3,,,,,,,,
OrientationDeg,1618417295085,2123956496531528,37,1,-1
OrientationDeg,1618417295100,2123956511517466,37,1,-1
OrientationDeg,1618417295115,2123956526534653,37,1,-1
OrientationDeg,1618417295130,2123956541520591,37,1,-1
OrientationDeg,1618417295144,2123956556536216,37,0,-1
OrientationDeg,1618417295160,2123956571522153,37,0,-2
OrientationDeg,1618417295174,2123956586537778,37,0,-2
Status,1618417295000,28,0,1,15,1575420032,21.00,43.32,47.54,1,1,1,
Status,1618417295000,28,1,1,23,1575420032,18.00,312.94,46.65,1,1,1,
Status,1618417295000,28,2,1,20,1575420032,29.00,4.61,44.69,1,1,1,
Status,1618417295000,28,3,1,18,1575420032,29.00,355.67,45.06,1,1,1,
Status,1618417295000,28,4,3,1,1602562560,23.00,7.30,45.05,1,0,0,
Status,1618417295000,28,5,3,23,1603687552,25.00,332.75,0.11,0,0,1,
Status,1618417295000,28,6,3,24,1603124992,26.00,5.25,53.75,1,0,1,
Status,1618417295000,28,7,1,29,1575420032,0.00,172.79,67.36,0,1,1,
Status,1618417295000,28,8,1,24,1575420032,0.00,329.26,55.13,0,1,0,
Status,1618417295000,28,9,1,10,1575420032,0.00,276.14,29.54,0,1,1,
Status,1618417295000,28,10,1,13,1575420032,0.00,40.12,14.95,0,1,1,
Status,1618417295000,28,11,1,32,1575420032,0.00,209.99,14.94,0,1,1,
Status,1618417295000,28,12,1,25,1575420032,0.00,188.66,10.50,0,1,1,
Status,1618417295000,28,13,1,26,1575420032,0.00,274.22,6.65,0,1,1,
Status,1618417295000,28,14,3,2,1599750016,0.00,250.23,53.38,0,0,0,
Status,1618417295000,28,15,3,17,1604249984,0.00,334.04,8.80,0,1,1,
Status,1618417295000,28,16,3,3,1604812544,0.00,222.03,7.43,0,0,0,
Status,1618417295000,28,17,3,22,1600312448,0.00,138.79,5.36,0,0,1,
Status,1618417295000,28,18,5,1,1561097984,0.00,155.25,68.14,0,0,0,
Status,1618417295000,28,19,5,2,1561097984,0.00,134.39,63.72,0,0,0,
Status,1618417295000,28,20,5,3,1561097984,0.00,254.12,36.44,0,0,0,
Status,1618417295000,28,21,5,5,1561097984,0.00,242.77,53.10,0,0,0,
Status,1618417295000,28,22,5,6,1561097984,0.00,180.16,24.71,0,0,1,
Status,1618417295000,28,23,5,7,1561097984,0.00,206.54,40.47,0,0,1,
Status,1618417295000,28,24,5,8,1561097984,0.00,313.37,33.93,0,0,0,
Status,1618417295000,28,25,5,9,1561097984,0.00,112.73,63.81,0,0,1,
Status,1618417295000,28,26,3,8,1605374976,0.00,28.07,6.00,0,1,0,
Status,1618417295000,28,27,5,10,1561097984,0.00,161.27,7.43,0,1,1,
OrientationDeg,1618417295190,2123956601523716,37,0,-2
OrientationDeg,1618417295204,2123956616539341,37,1,-2
OrientationDeg,1618417295219,2123956631525278,37,1,-2
OrientationDeg,1618417295235,2123956646511216,37,1,-2
OrientationDeg,1618417295249,2123956661528403,37,1,-2
OrientationDeg,1618417295265,2123956676512778,37,1,-2
OrientationDeg,1618417295280,2123956691529966,37,1,-2
OrientationDeg,1618417295294,2123956706515903,38,1,-2
OrientationDeg,1618417295309,2123956721531528,38,1,-2
OrientationDeg,1618417295325,2123956736517466,38,1,-2
OrientationDeg,1618417295340,2123956751533091,38,1,-1
OrientationDeg,1618417295355,2123956766519028,38,1,-1
OrientationDeg,1618417295370,2123956781536216,38,1,-1
OrientationDeg,1618417295385,2123956796520591,38,1,-1
OrientationDeg,1618417295399,2123956811537778,38,1,-1
OrientationDeg,1618417295415,2123956826522153,38,1,-1
OrientationDeg,1618417295429,2123956841539341,38,1,-1
OrientationDeg,1618417295445,2123956856526841,38,1,-1
OrientationDeg,1618417295459,2123956871511216,38,1,-1
OrientationDeg,1618417295475,2123956886526841,38,1,-1
OrientationDeg,1618417295489,2123956901512778,38,1,-1
OrientationDeg,1618417295505,2123956916529966,38,1,-1
OrientationDeg,1618417295519,2123956931514341,38,1,-1
OrientationDeg,1618417295534,2123956946531528,38,1,-1
OrientationDeg,1618417295550,2123956961517466,38,1,-1
OrientationDeg,1618417295564,2123956976533091,38,0,0
OrientationDeg,1618417295579,2123956991519028,38,0,0
OrientationDeg,1618417295595,2123957006534653,38,0,0
OrientationDeg,1618417295610,2123957021520591,38,0,0
OrientationDeg,1618417295625,2123957036537778,37,0,0
OrientationDeg,1618417295639,2123957051522153,37,0,0
OrientationDeg,1618417295655,2123957066542466,37,0,0
OrientationDeg,1618417295669,2123957081523716,37,0,0
OrientationDeg,1618417295684,2123957096511216,37,0,0
OrientationDeg,1618417295700,2123957111526841,37,0,0
OrientationDeg,1618417295715,2123957126512778,37,0,0
OrientationDeg,1618417295730,2123957141528403,37,0,0
OrientationDeg,1618417295744,2123957156514341,37,0,0
OrientationDeg,1618417295759,2123957171531528,37,1,0
OrientationDeg,1618417295775,2123957186515903,37,1,0
OrientationDeg,1618417295790,2123957201533091,37,1,0
OrientationDeg,1618417295804,2123957216519028,37,1,0
OrientationDeg,1618417295819,2123957231534653,37,1,0
OrientationDeg,1618417295834,2123957246520591,36,1,0
OrientationDeg,1618417295850,2123957261536216,36,1,0
OrientationDeg,1618417295865,2123957276522153,36,1,0
OrientationDeg,1618417295880,2123957291539341,36,1,0
OrientationDeg,1618417295895,2123957306523716,36,1,0
OrientationDeg,1618417295910,2123957321540903,36,1,0
OrientationDeg,1618417295925,2123957336526841,36,1,0
OrientationDeg,1618417295940,2123957351511216,36,1,0
OrientationDeg,1618417295954,2123957366528403,36,1,0
OrientationDeg,1618417295969,2123957381514341,36,1,0
OrientationDeg,1618417295984,2123957396531528,36,1,0
OrientationDeg,1618417295999,2123957411515903,36,1,0
OrientationDeg,1618417296015,2123957426533091,36,1,0
OrientationDeg,1618417296030,2123957441517466,36,1,0
OrientationDeg,1618417296044,2123957456534653,36,1,0
OrientationDeg,1618417296060,2123957471520591,36,1,0
Fix,GPS,17.5032249,78.3314707,587.098801,0.607394,171.192612,301.095764,1618417296000,0.0,0.0,2123957480206495
Raw,1618417296000,1302452514000000000,18,,-38980,-0.7265257008475601,333.564095198152,-1046.788349876878,0.0,0,15,220.0,3,9324538,25,23.0,114.92085184436291,0.1,0,0.0,0.0,1.57542003E9,,,,0,,1,,,,,,,,
Raw,1618417296000,1302452514000000000,18,,-38980,-0.7265257008475601,333.564095198152,-1046.788349876878,0.0,0,23,220.0,3,8221265,400,17.0,-294.0243787597865,0.1,0,0.0,0.0,1.57542003E9,,,,0,,1,,,,,,,,
Raw,1618417296000,1302452514000000000,18,,-38980,-0.7265257008475601,333.564095198152,-1046.788349876878,0.0,0,20,220.0,3,8274484,10,29.0,-141.58065593219362,0.1,0,0.0,0.0,1.57542003E9,,,,0,,1,,,,,,,,
Raw,1618417296000,1302452514000000000,18,,-38980,-0.7265257008475601,333.564095198152,-1046.788349876878,0.0,0,18,220.0,3,8184225,10,28.0,-609.1585937538184,0.1,0,0.0,0.0,1.57542003E9,,,,0,,1,,,,,,,,
Raw,1618417296000,1302452514000000000,18,,-38980,-0.7265257008475601,333.564095198152,-1046.788349876878,0.0,0,1,220.0,33,1417652,25,24.0,229.30187996470175,0.1,0,0.0,0.0,1.60256256E9,,,,0,,3,,,,,,,,
Raw,1618417296000,1302452514000000000,18,,-38980,-0.7265257008475601,333.564095198152,-1046.788349876878,0.0,0,23,220.0,33,6992026,25,27.0,-0.0,0.1,0,0.0,0.0,1.60368755E9,,,,0,,3,,,,,,,,
Raw,1618417296000,1302452514000000000,18,,-38980,-0.7265257008475601,333.564095198152,-1046.788349876878,0.0,0,24,220.0,99,1933049147,25,23.0,-761.5923883961236,0.1,0,0.0,0.0,1.60312499E9,,,,0,,3,,,,,,,,
OrientationDeg,1618417296075,2123957486536216,36,1,0
OrientationDeg,1618417296090,2123957501522153,36,0,0
OrientationDeg,1618417296104,2123957516539341,36,0,0
OrientationDeg,1618417296120,2123957531523716,36,0,0
OrientationDeg,1618417296134,2123957546540903,36,0,0
OrientationDeg,1618417296150,2123957561525278,36,1,0
OrientationDeg,1618417296165,2123957576511216,36,0,0
OrientationDeg,1618417296179,2123957591528403,36,0,0
OrientationDeg,1618417296194,2123957606512778,36,0,0
Status,1618417296000,28,0,1,15,1575420032,23.00,43.32,47.54,1,1,1,
Status,1618417296000,28,1,1,23,1575420032,17.00,312.96,46.65,1,1,1,
Status,1618417296000,28,2,1,20,1575420032,29.00,4.62,44.69,1,1,1,
Status,1618417296000,28,3,1,18,1575420032,28.00,355.68,45.07,1,1,1,
Status,1618417296000,28,4,3,1,1602562560,24.00,7.31,45.04,1,0,0,
Status,1618417296000,28,5,3,23,1603687552,27.00,332.75,0.11,0,0,1,
Status,1618417296000,28,6,3,24,1603124992,23.00,5.26,53.76,1,0,1,
Status,1618417296000,28,7,1,29,1575420032,0.00,172.79,67.35,0,1,1,
Status,1618417296000,28,8,1,24,1575420032,0.00,329.26,55.13,0,1,0,
Status,1618417296000,28,9,1,10,1575420032,0.00,276.15,29.54,0,1,1,
Status,1618417296000,28,10,1,13,1575420032,0.00,40.12,14.94,0,1,1,
Status,1618417296000,28,11,1,32,1575420032,0.00,209.99,14.94,0,1,1,
Status,1618417296000,28,12,1,25,1575420032,0.00,188.65,10.50,0,1,1,
Status,1618417296000,28,13,1,26,1575420032,0.00,274.21,6.65,0,1,1,
Status,1618417296000,28,14,3,2,1599750016,0.00,250.25,53.38,0,0,0,
Status,1618417296000,28,15,3,17,1604249984,0.00,334.05,8.80,0,1,1,
Status,1618417296000,28,16,3,3,1604812544,0.00,222.04,7.44,0,0,0,
Status,1618417296000,28,17,3,22,1600312448,0.00,138.80,5.35,0,0,1,
Status,1618417296000,28,18,5,1,1561097984,0.00,155.25,68.14,0,0,0,
Status,1618417296000,28,19,5,2,1561097984,0.00,134.39,63.72,0,0,0,
Status,1618417296000,28,20,5,3,1561097984,0.00,254.12,36.44,0,0,0,
Status,1618417296000,28,21,5,5,1561097984,0.00,242.77,53.10,0,0,0,
Status,1618417296000,28,22,5,6,1561097984,0.00,180.16,24.71,0,0,1,
Status,1618417296000,28,23,5,7,1561097984,0.00,206.54,40.47,0,0,1,
Status,1618417296000,28,24,5,8,1561097984,0.00,313.37,33.93,0,0,0,
Status,1618417296000,28,25,5,9,1561097984,0.00,112.73,63.81,0,0,1,
Status,1618417296000,28,26,3,8,1605374976,0.00,28.08,5.99,0,1,0,
Status,1618417296000,28,27,5,10,1561097984,0.00,161.27,7.43,0,1,1,
OrientationDeg,1618417296210,2123957621529966,35,0,0
OrientationDeg,1618417296225,2123957636515903,35,0,-1
OrientationDeg,1618417296240,2123957651533091,35,0,-1
OrientationDeg,1618417296254,2123957666517466,35,0,-1
OrientationDeg,1618417296269,2123957681534653,35,0,-1
OrientationDeg,1618417296284,2123957696519028,35,0,-1
OrientationDeg,1618417296300,2123957711536216,35,0,-1
OrientationDeg,1618417296314,2123957726522153,35,0,-1
OrientationDeg,1618417296330,2123957741537778,35,0,-1
OrientationDeg,1618417296345,2123957756522153,35,0,-1
OrientationDeg,1618417296360,2123957771539341,35,0,-1
OrientationDeg,1618417296375,2123957786525278,35,0,-1
OrientationDeg,1618417296390,2123957801511216,35,0,-1
OrientationDeg,1618417296405,2123957816526841,35,0,-1
OrientationDeg,1618417296420,2123957831512778,35,0,-1
OrientationDeg,1618417296435,2123957846529966,35,0,-1
OrientationDeg,1618417296450,2123957861515903,35,0,-1
OrientationDeg,1618417296464,2123957876531528,35,0,-1
OrientationDeg,1618417296480,2123957891517466,35,0,-1
OrientationDeg,1618417296495,2123957906533091,36,0,-1
OrientationDeg,1618417296510,2123957921519028,36,1,-1
OrientationDeg,1618417296525,2123957936536216,36,1,-1
OrientationDeg,1618417296540,2123957951522153,36,1,-1
OrientationDeg,1618417296555,2123957966537778,36,1,-1
OrientationDeg,1618417296569,2123957981522153,36,1,-1
OrientationDeg,1618417296585,2123957996539341,36,1,-1
OrientationDeg,1618417296600,2123958011525278,36,2,0
OrientationDeg,1618417296614,2123958026509653,36,2,0
OrientationDeg,1618417296630,2123958041526841,36,2,0
OrientationDeg,1618417296644,2123958056512778,36,2,0
OrientationDeg,1618417296659,2123958071529966,36,2,0
OrientationDeg,1618417296674,2123958086514341,36,2,0
OrientationDeg,1618417296689,2123958101531528,36,3,0
OrientationDeg,1618417296704,2123958116515903,36,3,0
OrientationDeg,1618417296719,2123958131533091,36,3,0
OrientationDeg,1618417296735,2123958146519028,36,3,0
OrientationDeg,1618417296750,2123958161536216,36,3,0
OrientationDeg,1618417296764,2123958176520591,36,3,0
OrientationDeg,1618417296780,2123958191537778,36,4,0
OrientationDeg,1618417296795,2123958206522153,36,4,0
OrientationDeg,1618417296810,2123958221539341,36,4,0
OrientationDeg,1618417296825,2123958236525278,36,4,0
OrientationDeg,1618417296839,2123958251509653,36,4,0
OrientationDeg,1618417296855,2123958266526841,35,4,0
OrientationDeg,1618417296869,2123958281512778,35,4,0
OrientationDeg,1618417296884,2123958296529966,35,4,0
OrientationDeg,1618417296899,2123958311514341,35,3,0
OrientationDeg,1618417296915,2123958326531528,35,3,0
OrientationDeg,1618417296930,2123958341515903,35,3,0
OrientationDeg,1618417296945,2123958356533091,34,3,1
OrientationDeg,1618417296959,2123958371517466,34,3,1
OrientationDeg,1618417296974,2123958386534653,34,3,1
OrientationDeg,1618417296989,2123958401520591,34,3,1
OrientationDeg,1618417297005,2123958416536216,34,3,0
OrientationDeg,1618417297020,2123958431522153,34,3,0
OrientationDeg,1618417297034,2123958446539341,34,3,0
OrientationDeg,1618417297050,2123958461523716,33,3,0
OrientationDeg,1618417297064,2123958476540903,33,3,0
Fix,GPS,17.5032298,78.3314557,591.194577,0.721908,172.037277,289.975677,1618417297000,0.0,0.0,2123958477396079
Raw,1618417297000,1302452515000000000,18,,-40022,-0.7400442882644711,333.564095198152,-1046.5645743501063,0.0,0,15,220.0,3,9324153,25,23.0,115.23229046724737,0.1,0,0.0,0.0,1.57542003E9,,,,0,,1,,,,,,,,
Raw,1618417297000,1302452515000000000,18,,-40022,-0.7400442882644711,333.564095198152,-1046.5645743501063,0.0,0,23,220.0,3,8222249,400,16.0,-294.0430212125648,0.1,0,0.0,0.0,1.57542003E9,,,,0,,1,,,,,,,,
Raw,1618417297000,1302452515000000000,18,,-40022,-0.7400442882644711,333.564095198152,-1046.5645743501063,0.0,0,20,220.0,7,928274956,10,29.0,-141.80546198040247,0.1,0,0.0,0.0,1.57542003E9,,,,0,,1,,,,,,,,
Raw,1618417297000,1302452515000000000,18,,-40022,-0.7400442882644711,333.564095198152,-1046.5645743501063,0.0,0,18,220.0,3,8186257,25,27.0,-609.1936854296364,0.1,0,0.0,0.0,1.57542003E9,,,,0,,1,,,,,,,,
Raw,1618417297000,1302452515000000000,18,,-40022,-0.7400442882644711,333.564095198152,-1046.5645743501063,0.0,0,1,220.0,33,1416889,25,25.0,229.63534307023426,0.1,0,0.0,0.0,1.60256256E9,,,,0,,3,,,,,,,,
Raw,1618417297000,1302452515000000000,18,,-40022,-0.7400442882644711,333.564095198152,-1046.5645743501063,0.0,0,23,220.0,33,6992026,25,23.0,-0.0,0.1,0,0.0,0.0,1.60368755E9,,,,0,,3,,,,,,,,
Raw,1618417297000,1302452515000000000,18,,-40022,-0.7400442882644711,333.564095198152,-1046.5645743501063,0.0,0,24,220.0,99,933051691,25,24.0,-761.5262939105936,0.1,0,0.0,0.0,1.60312499E9,,,,0,,3,,,,,,,,
OrientationDeg,1618417297080,2123958491528403,33,3,0
OrientationDeg,1618417297095,2123958506511216,33,3,0
OrientationDeg,1618417297109,2123958521528403,33,3,0
OrientationDeg,1618417297125,2123958536514341,33,3,0
OrientationDeg,1618417297140,2123958551529966,33,3,0
OrientationDeg,1618417297155,2123958566515903,33,2,0
OrientationDeg,1618417297170,2123958581533091,33,2,0
OrientationDeg,1618417297185,2123958596517466,33,2,0
Status,1618417297000,28,0,1,15,1575420032,23.00,43.31,47.53,1,1,1,
Status,1618417297000,28,1,1,23,1575420032,16.00,312.97,46.65,1,1,1,
Status,1618417297000,28,2,1,20,1575420032,29.00,4.63,44.68,1,1,1,
Status,1618417297000,28,3,1,18,1575420032,27.00,355.68,45.07,1,1,1,
Status,1618417297000,28,4,3,1,1602562560,25.00,7.31,45.03,1,0,0,
Status,1618417297000,28,5,3,23,1603687552,23.00,332.75,0.11,0,0,1,
Status,1618417297000,28,6,3,24,1603124992,24.00,5.26,53.77,1,0,1,
Status,1618417297000,28,7,1,29,1575420032,0.00,172.79,67.34,0,1,1,
Status,1618417297000,28,8,1,24,1575420032,0.00,329.25,55.17,0,1,0,
Status,1618417297000,28,9,1,10,1575420032,0.00,276.16,29.54,0,1,1,
Status,1618417297000,28,10,1,13,1575420032,0.00,40.12,14.93,0,1,1,
Status,1618417297000,28,11,1,32,1575420032,0.00,209.99,14.95,0,1,1,
Status,1618417297000,28,12,1,25,1575420032,0.00,188.65,10.50,0,1,1,
Status,1618417297000,28,13,1,26,1575420032,0.00,274.21,6.65,0,1,1,
Status,1618417297000,28,14,3,2,1599750016,0.00,250.26,53.39,0,0,0,
Status,1618417297000,28,15,3,17,1604249984,0.00,334.05,8.81,0,1,1,
Status,1618417297000,28,16,3,3,1604812544,0.00,222.05,7.44,0,0,0,
Status,1618417297000,28,17,3,22,1600312448,0.00,138.80,5.35,0,0,1,
Status,1618417297000,28,18,5,1,1561097984,0.00,155.25,68.14,0,0,0,
Status,1618417297000,28,19,5,2,1561097984,0.00,134.39,63.72,0,0,0,
Status,1618417297000,28,20,5,3,1561097984,0.00,254.12,36.44,0,0,0,
Status,1618417297000,28,21,5,5,1561097984,0.00,242.77,53.10,0,0,0,
Status,1618417297000,28,22,5,6,1561097984,0.00,180.16,24.71,0,0,1,
Status,1618417297000,28,23,5,7,1561097984,0.00,206.54,40.47,0,0,1,
Status,1618417297000,28,24,5,8,1561097984,0.00,313.37,33.93,0,0,0,
Status,1618417297000,28,25,5,9,1561097984,0.00,112.73,63.81,0,0,1,
Status,1618417297000,28,26,3,8,1605374976,0.00,28.08,5.99,0,1,0,
Status,1618417297000,28,27,5,10,1561097984,0.00,161.27,7.43,0,1,1,
OrientationDeg,1618417297200,2123958611534653,33,3,-1
OrientationDeg,1618417297215,2123958626519028,33,3,-1
OrientationDeg,1618417297230,2123958641536216,33,3,-1
OrientationDeg,1618417297244,2123958656520591,33,3,-1
OrientationDeg,1618417297260,2123958671539341,34,3,-1
OrientationDeg,1618417297274,2123958686523716,34,3,-2
OrientationDeg,1618417297289,2123958701540903,34,3,-2
OrientationDeg,1618417297305,2123958716525278,34,3,-2
OrientationDeg,1618417297319,2123958731512778,34,3,-2
OrientationDeg,1618417297335,2123958746528403,34,3,-3
OrientationDeg,1618417297350,2123958761512778,34,3,-3
OrientationDeg,1618417297365,2123958776529966,34,3,-3
OrientationDeg,1618417297379,2123958791515903,34,3,-3
OrientationDeg,1618417297395,2123958806531528,35,3,-3
OrientationDeg,1618417297409,2123958821517466,35,3,-3
OrientationDeg,1618417297425,2123958836533091,35,3,-3
OrientationDeg,1618417297440,2123958851519028,35,3,-4
OrientationDeg,1618417297455,2123958866536216,35,3,-4
OrientationDeg,1618417297470,2123958881520591,35,3,-4
OrientationDeg,1618417297485,2123958896537778,35,3,-4
OrientationDeg,1618417297500,2123958911523716,35,3,-3
OrientationDeg,1618417297515,2123958926539341,35,3,-3
OrientationDeg,1618417297530,2123958941525278,35,3,-3
OrientationDeg,1618417297544,2123958956511216,35,3,-3
OrientationDeg,1618417297560,2123958971528403,35,3,-3
OrientationDeg,1618417297574,2123958986512778,35,3,-3
OrientationDeg,1618417297590,2123959001529966,34,3,-3
OrientationDeg,1618417297604,2123959016515903,34,3,-3
OrientationDeg,1618417297619,2123959031531528,34,3,-3
OrientationDeg,1618417297634,2123959046517466,34,3,-3
OrientationDeg,1618417297649,2123959061534653,34,3,-3
OrientationDeg,1618417297665,2123959076519028,34,3,-3
OrientationDeg,1618417297680,2123959091534653,34,3,-3
OrientationDeg,1618417297694,2123959106520591,34,3,-3
OrientationDeg,1618417297710,2123959121537778,34,3,-3
OrientationDeg,1618417297724,2123959136522153,34,3,-3
OrientationDeg,1618417297739,2123959151539341,34,3,-3
OrientationDeg,1618417297755,2123959166525278,34,3,-3
OrientationDeg,1618417297770,2123959181509653,34,3,-3
OrientationDeg,1618417297785,2123959196526841,34,3,-3
OrientationDeg,1618417297800,2123959211512778,34,3,-2
OrientationDeg,1618417297814,2123959226529966,34,3,-2
OrientationDeg,1618417297829,2123959241514341,34,3,-2
OrientationDeg,1618417297845,2123959256531528,34,3,-2
OrientationDeg,1618417297860,2123959271515903,34,3,-2
OrientationDeg,1618417297875,2123959286533091,34,3,-3
OrientationDeg,1618417297890,2123959301519028,34,3,-3
OrientationDeg,1618417297904,2123959316534653,34,3,-3
OrientationDeg,1618417297920,2123959331520591,34,3,-3
OrientationDeg,1618417297935,2123959346537778,34,3,-3
OrientationDeg,1618417297950,2123959361522153,34,3,-3
OrientationDeg,1618417297965,2123959376539341,34,3,-3
OrientationDeg,1618417297979,2123959391523716,34,3,-3
OrientationDeg,1618417297994,2123959406540903,34,3,-3
OrientationDeg,1618417298010,2123959421526841,34,3,-3
OrientationDeg,1618417298025,2123959436511216,34,3,-3
OrientationDeg,1618417298039,2123959451528403,34,3,-2
OrientationDeg,1618417298054,2123959466514341,34,3,-2
OrientationDeg,1618417298069,2123959481529966,34,3,-2
Raw,1618417298000,1302452516000000000,18,,-41069,-0.014884683027048595,333.564095198152,-1047.1456651333604,0.0,0,15,220.0,3,9323775,25,24.0,114.91536877001636,0.1,0,0.0,0.0,1.57542003E9,,,,0,,1,,,,,,,,
Raw,1618417298000,1302452516000000000,18,,-41069,-0.014884683027048595,333.564095198152,-1047.1456651333604,0.0,0,23,220.0,3,8223223,400,17.0,-294.34459030162543,0.1,0,0.0,0.0,1.57542003E9,,,,0,,1,,,,,,,,
Raw,1618417298000,1302452516000000000,18,,-41069,-0.014884683027048595,333.564095198152,-1047.1456651333604,0.0,0,20,220.0,16399,318115928275433,10,30.0,-141.9721474405378,0.1,0,0.0,0.0,1.57542003E9,,,,0,,1,,,,,,,,
Raw,1618417298000,1302452516000000000,18,,-41069,-0.014884683027048595,333.564095198152,-1047.1456651333604,0.0,0,18,220.0,3,8188288,10,29.0,-609.4130084034987,0.1,0,0.0,0.0,1.57542003E9,,,,0,,1,,,,,,,,
Raw,1618417298000,1302452516000000000,18,,-41069,-0.014884683027048595,333.564095198152,-1047.1456651333604,0.0,0,1,220.0,33,1416125,25,24.0,229.5692253855166,0.1,0,0.0,0.0,1.60256256E9,,,,0,,3,,,,,,,,
Raw,1618417298000,1302452516000000000,18,,-41069,-0.014884683027048595,333.564095198152,-1047.1456651333604,0.0,0,23,220.0,33,6992026,25,24.0,-0.0,0.1,0,0.0,0.0,1.60368755E9,,,,0,,3,,,,,,,,
Raw,1618417298000,1302452516000000000,18,,-41069,-0.014884683027048595,333.564095198152,-1047.1456651333604,0.0,0,24,220.0,99,1933054232,25,25.0,-762.0579234681178,0.1,0,0.0,0.0,1.60312499E9,,,,0,,3,,,,,,,,
Fix,GPS,17.5032249,78.3314397,594.949187,0.734590,171.625107,292.326843,1618417298000,0.0,0.0,2123959487468995
OrientationDeg,1618417298085,2123959496515903,34,3,-2
